{
    "110000": {
        "lng": 116.41995,
        "lat": 40.18994,
        "name": "北京市",
        "level": "province",
        "childrenNum": 16
    },
    "110101": {
        "lng": 116.416718,
        "lat": 39.912934,
        "name": "东城区",
        "level": "district",
        "childrenNum": 0
    },
    "110102": {
        "lng": 116.36567,
        "lat": 39.912028,
        "name": "西城区",
        "level": "district",
        "childrenNum": 0
    },
    "110105": {
        "lng": 116.513687,
        "lat": 39.951064,
        "name": "朝阳区",
        "level": "district",
        "childrenNum": 0
    },
    "110106": {
        "lng": 116.250342,
        "lat": 39.835716,
        "name": "丰台区",
        "level": "district",
        "childrenNum": 0
    },
    "110107": {
        "lng": 116.176229,
        "lat": 39.933205,
        "name": "石景山区",
        "level": "district",
        "childrenNum": 0
    },
    "110108": {
        "lng": 116.23328,
        "lat": 40.026927,
        "name": "海淀区",
        "level": "district",
        "childrenNum": 0
    },
    "110109": {
        "lng": 115.791698,
        "lat": 39.994115,
        "name": "门头沟区",
        "level": "district",
        "childrenNum": 0
    },
    "110111": {
        "lng": 115.853966,
        "lat": 39.719216,
        "name": "房山区",
        "level": "district",
        "childrenNum": 0
    },
    "110112": {
        "lng": 116.733003,
        "lat": 39.803506,
        "name": "通州区",
        "level": "district",
        "childrenNum": 0
    },
    "110113": {
        "lng": 116.726467,
        "lat": 40.152366,
        "name": "顺义区",
        "level": "district",
        "childrenNum": 0
    },
    "110114": {
        "lng": 116.210616,
        "lat": 40.215484,
        "name": "昌平区",
        "level": "district",
        "childrenNum": 0
    },
    "110115": {
        "lng": 116.418968,
        "lat": 39.647838,
        "name": "大兴区",
        "level": "district",
        "childrenNum": 0
    },
    "110116": {
        "lng": 116.586079,
        "lat": 40.63069,
        "name": "怀柔区",
        "level": "district",
        "childrenNum": 0
    },
    "110117": {
        "lng": 117.145392,
        "lat": 40.208997,
        "name": "平谷区",
        "level": "district",
        "childrenNum": 0
    },
    "110118": {
        "lng": 116.995042,
        "lat": 40.526881,
        "name": "密云区",
        "level": "district",
        "childrenNum": 0
    },
    "110119": {
        "lng": 116.164004,
        "lat": 40.540013,
        "name": "延庆区",
        "level": "district",
        "childrenNum": 0
    },
    "120000": {
        "lng": 117.347043,
        "lat": 39.288036,
        "name": "天津市",
        "level": "province",
        "childrenNum": 16
    },
    "120101": {
        "lng": 117.196207,
        "lat": 39.118993,
        "name": "和平区",
        "level": "district",
        "childrenNum": 0
    },
    "120102": {
        "lng": 117.256682,
        "lat": 39.122406,
        "name": "河东区",
        "level": "district",
        "childrenNum": 0
    },
    "120103": {
        "lng": 117.232522,
        "lat": 39.072613,
        "name": "河西区",
        "level": "district",
        "childrenNum": 0
    },
    "120104": {
        "lng": 117.155049,
        "lat": 39.108953,
        "name": "南开区",
        "level": "district",
        "childrenNum": 0
    },
    "120105": {
        "lng": 117.213791,
        "lat": 39.167182,
        "name": "河北区",
        "level": "district",
        "childrenNum": 0
    },
    "120106": {
        "lng": 117.155648,
        "lat": 39.164723,
        "name": "红桥区",
        "level": "district",
        "childrenNum": 0
    },
    "120110": {
        "lng": 117.409531,
        "lat": 39.133692,
        "name": "东丽区",
        "level": "district",
        "childrenNum": 0
    },
    "120111": {
        "lng": 117.118438,
        "lat": 39.028602,
        "name": "西青区",
        "level": "district",
        "childrenNum": 0
    },
    "120112": {
        "lng": 117.387949,
        "lat": 38.963139,
        "name": "津南区",
        "level": "district",
        "childrenNum": 0
    },
    "120113": {
        "lng": 117.173477,
        "lat": 39.253486,
        "name": "北辰区",
        "level": "district",
        "childrenNum": 0
    },
    "120114": {
        "lng": 117.0282,
        "lat": 39.451188,
        "name": "武清区",
        "level": "district",
        "childrenNum": 0
    },
    "120115": {
        "lng": 117.405517,
        "lat": 39.60949,
        "name": "宝坻区",
        "level": "district",
        "childrenNum": 0
    },
    "120116": {
        "lng": 117.59762,
        "lat": 38.911764,
        "name": "滨海新区",
        "level": "district",
        "childrenNum": 0
    },
    "120117": {
        "lng": 117.82828,
        "lat": 39.328886,
        "name": "宁河区",
        "level": "district",
        "childrenNum": 0
    },
    "120118": {
        "lng": 116.966349,
        "lat": 38.85579,
        "name": "静海区",
        "level": "district",
        "childrenNum": 0
    },
    "120119": {
        "lng": 117.434984,
        "lat": 40.003468,
        "name": "蓟州区",
        "level": "district",
        "childrenNum": 0
    },
    "130000": {
        "lng": 114.502461,
        "lat": 38.045474,
        "name": "河北省",
        "level": "province",
        "childrenNum": 11
    },
    "130100": {
        "lng": 114.444982,
        "lat": 38.133034,
        "name": "石家庄市",
        "level": "city",
        "childrenNum": 22
    },
    "130102": {
        "lng": 114.583482,
        "lat": 38.080599,
        "name": "长安区",
        "level": "district",
        "childrenNum": 0
    },
    "130104": {
        "lng": 114.449351,
        "lat": 38.025685,
        "name": "桥西区",
        "level": "district",
        "childrenNum": 0
    },
    "130105": {
        "lng": 114.447636,
        "lat": 38.099975,
        "name": "新华区",
        "level": "district",
        "childrenNum": 0
    },
    "130107": {
        "lng": 114.045943,
        "lat": 38.077325,
        "name": "井陉矿区",
        "level": "district",
        "childrenNum": 0
    },
    "130108": {
        "lng": 114.584117,
        "lat": 38.009464,
        "name": "裕华区",
        "level": "district",
        "childrenNum": 0
    },
    "130109": {
        "lng": 114.809769,
        "lat": 38.049193,
        "name": "藁城区",
        "level": "district",
        "childrenNum": 0
    },
    "130110": {
        "lng": 114.342239,
        "lat": 38.076964,
        "name": "鹿泉区",
        "level": "district",
        "childrenNum": 0
    },
    "130111": {
        "lng": 114.634833,
        "lat": 37.892505,
        "name": "栾城区",
        "level": "district",
        "childrenNum": 0
    },
    "130121": {
        "lng": 114.116012,
        "lat": 37.956016,
        "name": "井陉县",
        "level": "district",
        "childrenNum": 0
    },
    "130123": {
        "lng": 114.560729,
        "lat": 38.222955,
        "name": "正定县",
        "level": "district",
        "childrenNum": 0
    },
    "130125": {
        "lng": 114.451539,
        "lat": 38.53971,
        "name": "行唐县",
        "level": "district",
        "childrenNum": 0
    },
    "130126": {
        "lng": 114.178813,
        "lat": 38.506712,
        "name": "灵寿县",
        "level": "district",
        "childrenNum": 0
    },
    "130127": {
        "lng": 114.598306,
        "lat": 37.616239,
        "name": "高邑县",
        "level": "district",
        "childrenNum": 0
    },
    "130128": {
        "lng": 115.223498,
        "lat": 38.188482,
        "name": "深泽县",
        "level": "district",
        "childrenNum": 0
    },
    "130129": {
        "lng": 114.28077,
        "lat": 37.620812,
        "name": "赞皇县",
        "level": "district",
        "childrenNum": 0
    },
    "130130": {
        "lng": 114.944245,
        "lat": 38.178372,
        "name": "无极县",
        "level": "district",
        "childrenNum": 0
    },
    "130131": {
        "lng": 113.867428,
        "lat": 38.401672,
        "name": "平山县",
        "level": "district",
        "childrenNum": 0
    },
    "130132": {
        "lng": 114.42316,
        "lat": 37.801614,
        "name": "元氏县",
        "level": "district",
        "childrenNum": 0
    },
    "130133": {
        "lng": 114.825639,
        "lat": 37.762868,
        "name": "赵县",
        "level": "district",
        "childrenNum": 0
    },
    "130181": {
        "lng": 115.292201,
        "lat": 37.916568,
        "name": "辛集市",
        "level": "district",
        "childrenNum": 0
    },
    "130183": {
        "lng": 115.083994,
        "lat": 37.984837,
        "name": "晋州市",
        "level": "district",
        "childrenNum": 0
    },
    "130184": {
        "lng": 114.75661,
        "lat": 38.373288,
        "name": "新乐市",
        "level": "district",
        "childrenNum": 0
    },
    "130200": {
        "lng": 118.343325,
        "lat": 39.71703,
        "name": "唐山市",
        "level": "city",
        "childrenNum": 14
    },
    "130202": {
        "lng": 118.198847,
        "lat": 39.565826,
        "name": "路南区",
        "level": "district",
        "childrenNum": 0
    },
    "130203": {
        "lng": 118.119598,
        "lat": 39.649539,
        "name": "路北区",
        "level": "district",
        "childrenNum": 0
    },
    "130204": {
        "lng": 118.438559,
        "lat": 39.716483,
        "name": "古冶区",
        "level": "district",
        "childrenNum": 0
    },
    "130205": {
        "lng": 118.276609,
        "lat": 39.70354,
        "name": "开平区",
        "level": "district",
        "childrenNum": 0
    },
    "130207": {
        "lng": 118.133595,
        "lat": 39.438623,
        "name": "丰南区",
        "level": "district",
        "childrenNum": 0
    },
    "130208": {
        "lng": 118.085374,
        "lat": 39.821747,
        "name": "丰润区",
        "level": "district",
        "childrenNum": 0
    },
    "130209": {
        "lng": 118.422781,
        "lat": 39.185429,
        "name": "曹妃甸区",
        "level": "district",
        "childrenNum": 0
    },
    "130224": {
        "lng": 118.613229,
        "lat": 39.471893,
        "name": "滦南县",
        "level": "district",
        "childrenNum": 0
    },
    "130225": {
        "lng": 118.944196,
        "lat": 39.340011,
        "name": "乐亭县",
        "level": "district",
        "childrenNum": 0
    },
    "130227": {
        "lng": 118.365274,
        "lat": 40.233033,
        "name": "迁西县",
        "level": "district",
        "childrenNum": 0
    },
    "130229": {
        "lng": 117.728613,
        "lat": 39.813211,
        "name": "玉田县",
        "level": "district",
        "childrenNum": 0
    },
    "130281": {
        "lng": 117.950905,
        "lat": 40.132038,
        "name": "遵化市",
        "level": "district",
        "childrenNum": 0
    },
    "130283": {
        "lng": 118.68042,
        "lat": 40.035068,
        "name": "迁安市",
        "level": "district",
        "childrenNum": 0
    },
    "130284": {
        "lng": 118.582114,
        "lat": 39.779374,
        "name": "滦州市",
        "level": "district",
        "childrenNum": 0
    },
    "130300": {
        "lng": 119.193332,
        "lat": 40.088346,
        "name": "秦皇岛市",
        "level": "city",
        "childrenNum": 7
    },
    "130302": {
        "lng": 119.586134,
        "lat": 40.07265,
        "name": "海港区",
        "level": "district",
        "childrenNum": 0
    },
    "130303": {
        "lng": 119.746367,
        "lat": 40.017247,
        "name": "山海关区",
        "level": "district",
        "childrenNum": 0
    },
    "130304": {
        "lng": 119.426985,
        "lat": 39.847925,
        "name": "北戴河区",
        "level": "district",
        "childrenNum": 0
    },
    "130306": {
        "lng": 119.270998,
        "lat": 39.958109,
        "name": "抚宁区",
        "level": "district",
        "childrenNum": 0
    },
    "130321": {
        "lng": 119.13346,
        "lat": 40.348387,
        "name": "青龙满族自治县",
        "level": "district",
        "childrenNum": 0
    },
    "130322": {
        "lng": 119.101644,
        "lat": 39.626176,
        "name": "昌黎县",
        "level": "district",
        "childrenNum": 0
    },
    "130324": {
        "lng": 118.979474,
        "lat": 39.918726,
        "name": "卢龙县",
        "level": "district",
        "childrenNum": 0
    },
    "130400": {
        "lng": 114.548854,
        "lat": 36.553496,
        "name": "邯郸市",
        "level": "city",
        "childrenNum": 18
    },
    "130402": {
        "lng": 114.482744,
        "lat": 36.503743,
        "name": "邯山区",
        "level": "district",
        "childrenNum": 0
    },
    "130403": {
        "lng": 114.579057,
        "lat": 36.662594,
        "name": "丛台区",
        "level": "district",
        "childrenNum": 0
    },
    "130404": {
        "lng": 114.360088,
        "lat": 36.574264,
        "name": "复兴区",
        "level": "district",
        "childrenNum": 0
    },
    "130406": {
        "lng": 114.182422,
        "lat": 36.467014,
        "name": "峰峰矿区",
        "level": "district",
        "childrenNum": 0
    },
    "130407": {
        "lng": 114.8319,
        "lat": 36.571143,
        "name": "肥乡区",
        "level": "district",
        "childrenNum": 0
    },
    "130408": {
        "lng": 114.621707,
        "lat": 36.786372,
        "name": "永年区",
        "level": "district",
        "childrenNum": 0
    },
    "130423": {
        "lng": 114.580075,
        "lat": 36.261238,
        "name": "临漳县",
        "level": "district",
        "childrenNum": 0
    },
    "130424": {
        "lng": 114.698494,
        "lat": 36.422563,
        "name": "成安县",
        "level": "district",
        "childrenNum": 0
    },
    "130425": {
        "lng": 115.243924,
        "lat": 36.303893,
        "name": "大名县",
        "level": "district",
        "childrenNum": 0
    },
    "130426": {
        "lng": 113.73849,
        "lat": 36.590232,
        "name": "涉县",
        "level": "district",
        "childrenNum": 0
    },
    "130427": {
        "lng": 114.38208,
        "lat": 36.367673,
        "name": "磁县",
        "level": "district",
        "childrenNum": 0
    },
    "130430": {
        "lng": 115.201512,
        "lat": 36.78884,
        "name": "邱县",
        "level": "district",
        "childrenNum": 0
    },
    "130431": {
        "lng": 114.863926,
        "lat": 36.866333,
        "name": "鸡泽县",
        "level": "district",
        "childrenNum": 0
    },
    "130432": {
        "lng": 115.011123,
        "lat": 36.504076,
        "name": "广平县",
        "level": "district",
        "childrenNum": 0
    },
    "130433": {
        "lng": 115.291918,
        "lat": 36.612595,
        "name": "馆陶县",
        "level": "district",
        "childrenNum": 0
    },
    "130434": {
        "lng": 114.930165,
        "lat": 36.24498,
        "name": "魏县",
        "level": "district",
        "childrenNum": 0
    },
    "130435": {
        "lng": 115.031937,
        "lat": 36.746467,
        "name": "曲周县",
        "level": "district",
        "childrenNum": 0
    },
    "130481": {
        "lng": 114.052008,
        "lat": 36.742816,
        "name": "武安市",
        "level": "district",
        "childrenNum": 0
    },
    "130500": {
        "lng": 114.822676,
        "lat": 37.213788,
        "name": "邢台市",
        "level": "city",
        "childrenNum": 18
    },
    "130502": {
        "lng": 114.561714,
        "lat": 37.088203,
        "name": "襄都区",
        "level": "district",
        "childrenNum": 0
    },
    "130503": {
        "lng": 114.139821,
        "lat": 37.145542,
        "name": "信都区",
        "level": "district",
        "childrenNum": 0
    },
    "130505": {
        "lng": 114.766808,
        "lat": 37.167218,
        "name": "任泽区",
        "level": "district",
        "childrenNum": 0
    },
    "130506": {
        "lng": 114.748019,
        "lat": 37.011672,
        "name": "南和区",
        "level": "district",
        "childrenNum": 0
    },
    "130522": {
        "lng": 114.379745,
        "lat": 37.457355,
        "name": "临城县",
        "level": "district",
        "childrenNum": 0
    },
    "130523": {
        "lng": 114.351718,
        "lat": 37.312681,
        "name": "内丘县",
        "level": "district",
        "childrenNum": 0
    },
    "130524": {
        "lng": 114.702944,
        "lat": 37.512672,
        "name": "柏乡县",
        "level": "district",
        "childrenNum": 0
    },
    "130525": {
        "lng": 114.78462,
        "lat": 37.357352,
        "name": "隆尧县",
        "level": "district",
        "childrenNum": 0
    },
    "130528": {
        "lng": 115.01419,
        "lat": 37.605445,
        "name": "宁晋县",
        "level": "district",
        "childrenNum": 0
    },
    "130529": {
        "lng": 115.052776,
        "lat": 37.271301,
        "name": "巨鹿县",
        "level": "district",
        "childrenNum": 0
    },
    "130530": {
        "lng": 115.249378,
        "lat": 37.49365,
        "name": "新河县",
        "level": "district",
        "childrenNum": 0
    },
    "130531": {
        "lng": 115.192609,
        "lat": 37.079211,
        "name": "广宗县",
        "level": "district",
        "childrenNum": 0
    },
    "130532": {
        "lng": 115.000023,
        "lat": 37.047071,
        "name": "平乡县",
        "level": "district",
        "childrenNum": 0
    },
    "130533": {
        "lng": 115.382099,
        "lat": 37.068934,
        "name": "威县",
        "level": "district",
        "childrenNum": 0
    },
    "130534": {
        "lng": 115.686622,
        "lat": 37.034838,
        "name": "清河县",
        "level": "district",
        "childrenNum": 0
    },
    "130535": {
        "lng": 115.523961,
        "lat": 36.851507,
        "name": "临西县",
        "level": "district",
        "childrenNum": 0
    },
    "130581": {
        "lng": 115.472183,
        "lat": 37.280176,
        "name": "南宫市",
        "level": "district",
        "childrenNum": 0
    },
    "130582": {
        "lng": 114.274277,
        "lat": 36.932246,
        "name": "沙河市",
        "level": "district",
        "childrenNum": 0
    },
    "130600": {
        "lng": 115.177642,
        "lat": 39.025137,
        "name": "保定市",
        "level": "city",
        "childrenNum": 24
    },
    "130602": {
        "lng": 115.421059,
        "lat": 38.897799,
        "name": "竞秀区",
        "level": "district",
        "childrenNum": 0
    },
    "130606": {
        "lng": 115.51316,
        "lat": 38.856197,
        "name": "莲池区",
        "level": "district",
        "childrenNum": 0
    },
    "130607": {
        "lng": 115.246496,
        "lat": 38.971175,
        "name": "满城区",
        "level": "district",
        "childrenNum": 0
    },
    "130608": {
        "lng": 115.483624,
        "lat": 38.718612,
        "name": "清苑区",
        "level": "district",
        "childrenNum": 0
    },
    "130609": {
        "lng": 115.573594,
        "lat": 39.037931,
        "name": "徐水区",
        "level": "district",
        "childrenNum": 0
    },
    "130623": {
        "lng": 115.438361,
        "lat": 39.609621,
        "name": "涞水县",
        "level": "district",
        "childrenNum": 0
    },
    "130624": {
        "lng": 114.158549,
        "lat": 38.888063,
        "name": "阜平县",
        "level": "district",
        "childrenNum": 0
    },
    "130626": {
        "lng": 115.748575,
        "lat": 39.206731,
        "name": "定兴县",
        "level": "district",
        "childrenNum": 0
    },
    "130627": {
        "lng": 114.798254,
        "lat": 38.898644,
        "name": "唐县",
        "level": "district",
        "childrenNum": 0
    },
    "130628": {
        "lng": 115.831404,
        "lat": 38.668578,
        "name": "高阳县",
        "level": "district",
        "childrenNum": 0
    },
    "130629": {
        "lng": 115.899032,
        "lat": 39.053708,
        "name": "容城县",
        "level": "district",
        "childrenNum": 0
    },
    "130630": {
        "lng": 114.723966,
        "lat": 39.362095,
        "name": "涞源县",
        "level": "district",
        "childrenNum": 0
    },
    "130631": {
        "lng": 115.172283,
        "lat": 38.671064,
        "name": "望都县",
        "level": "district",
        "childrenNum": 0
    },
    "130632": {
        "lng": 115.879026,
        "lat": 38.874038,
        "name": "安新县",
        "level": "district",
        "childrenNum": 0
    },
    "130633": {
        "lng": 115.245576,
        "lat": 39.311674,
        "name": "易县",
        "level": "district",
        "childrenNum": 0
    },
    "130634": {
        "lng": 114.654101,
        "lat": 38.700739,
        "name": "曲阳县",
        "level": "district",
        "childrenNum": 0
    },
    "130635": {
        "lng": 115.66346,
        "lat": 38.523533,
        "name": "蠡县",
        "level": "district",
        "childrenNum": 0
    },
    "130636": {
        "lng": 115.066403,
        "lat": 38.922047,
        "name": "顺平县",
        "level": "district",
        "childrenNum": 0
    },
    "130637": {
        "lng": 115.481043,
        "lat": 38.453156,
        "name": "博野县",
        "level": "district",
        "childrenNum": 0
    },
    "130638": {
        "lng": 116.175932,
        "lat": 39.038181,
        "name": "雄县",
        "level": "district",
        "childrenNum": 0
    },
    "130681": {
        "lng": 115.994175,
        "lat": 39.477134,
        "name": "涿州市",
        "level": "district",
        "childrenNum": 0
    },
    "130682": {
        "lng": 115.050014,
        "lat": 38.460198,
        "name": "定州市",
        "level": "district",
        "childrenNum": 0
    },
    "130683": {
        "lng": 115.328755,
        "lat": 38.385303,
        "name": "安国市",
        "level": "district",
        "childrenNum": 0
    },
    "130684": {
        "lng": 116.034663,
        "lat": 39.259853,
        "name": "高碑店市",
        "level": "district",
        "childrenNum": 0
    },
    "130700": {
        "lng": 115.038685,
        "lat": 40.874645,
        "name": "张家口市",
        "level": "city",
        "childrenNum": 16
    },
    "130702": {
        "lng": 115.049193,
        "lat": 40.758806,
        "name": "桥东区",
        "level": "district",
        "childrenNum": 0
    },
    "130703": {
        "lng": 114.861509,
        "lat": 40.786876,
        "name": "桥西区",
        "level": "district",
        "childrenNum": 0
    },
    "130705": {
        "lng": 115.050785,
        "lat": 40.528096,
        "name": "宣化区",
        "level": "district",
        "childrenNum": 0
    },
    "130706": {
        "lng": 115.312145,
        "lat": 40.541469,
        "name": "下花园区",
        "level": "district",
        "childrenNum": 0
    },
    "130708": {
        "lng": 114.606604,
        "lat": 40.838387,
        "name": "万全区",
        "level": "district",
        "childrenNum": 0
    },
    "130709": {
        "lng": 115.214117,
        "lat": 41.020609,
        "name": "崇礼区",
        "level": "district",
        "childrenNum": 0
    },
    "130722": {
        "lng": 114.763824,
        "lat": 41.286538,
        "name": "张北县",
        "level": "district",
        "childrenNum": 0
    },
    "130723": {
        "lng": 114.599044,
        "lat": 41.778702,
        "name": "康保县",
        "level": "district",
        "childrenNum": 0
    },
    "130724": {
        "lng": 115.628684,
        "lat": 41.573668,
        "name": "沽源县",
        "level": "district",
        "childrenNum": 0
    },
    "130725": {
        "lng": 114.147607,
        "lat": 41.123316,
        "name": "尚义县",
        "level": "district",
        "childrenNum": 0
    },
    "130726": {
        "lng": 114.705069,
        "lat": 39.875106,
        "name": "蔚县",
        "level": "district",
        "childrenNum": 0
    },
    "130727": {
        "lng": 114.386855,
        "lat": 40.133863,
        "name": "阳原县",
        "level": "district",
        "childrenNum": 0
    },
    "130728": {
        "lng": 114.499305,
        "lat": 40.552446,
        "name": "怀安县",
        "level": "district",
        "childrenNum": 0
    },
    "130730": {
        "lng": 115.62888,
        "lat": 40.342767,
        "name": "怀来县",
        "level": "district",
        "childrenNum": 0
    },
    "130731": {
        "lng": 115.219102,
        "lat": 40.096877,
        "name": "涿鹿县",
        "level": "district",
        "childrenNum": 0
    },
    "130732": {
        "lng": 115.886345,
        "lat": 40.951441,
        "name": "赤城县",
        "level": "district",
        "childrenNum": 0
    },
    "130800": {
        "lng": 117.551533,
        "lat": 41.356206,
        "name": "承德市",
        "level": "city",
        "childrenNum": 11
    },
    "130802": {
        "lng": 117.974692,
        "lat": 40.928457,
        "name": "双桥区",
        "level": "district",
        "childrenNum": 0
    },
    "130803": {
        "lng": 117.790295,
        "lat": 40.978274,
        "name": "双滦区",
        "level": "district",
        "childrenNum": 0
    },
    "130804": {
        "lng": 117.675201,
        "lat": 40.526778,
        "name": "鹰手营子矿区",
        "level": "district",
        "childrenNum": 0
    },
    "130821": {
        "lng": 118.130085,
        "lat": 40.973011,
        "name": "承德县",
        "level": "district",
        "childrenNum": 0
    },
    "130822": {
        "lng": 117.50651,
        "lat": 40.401946,
        "name": "兴隆县",
        "level": "district",
        "childrenNum": 0
    },
    "130824": {
        "lng": 117.332778,
        "lat": 40.92011,
        "name": "滦平县",
        "level": "district",
        "childrenNum": 0
    },
    "130825": {
        "lng": 117.559156,
        "lat": 41.514767,
        "name": "隆化县",
        "level": "district",
        "childrenNum": 0
    },
    "130826": {
        "lng": 116.617293,
        "lat": 41.41881,
        "name": "丰宁满族自治县",
        "level": "district",
        "childrenNum": 0
    },
    "130827": {
        "lng": 118.630081,
        "lat": 40.572096,
        "name": "宽城满族自治县",
        "level": "district",
        "childrenNum": 0
    },
    "130828": {
        "lng": 117.538134,
        "lat": 42.106146,
        "name": "围场满族蒙古族自治县",
        "level": "district",
        "childrenNum": 0
    },
    "130881": {
        "lng": 118.731191,
        "lat": 41.06919,
        "name": "平泉市",
        "level": "district",
        "childrenNum": 0
    },
    "130900": {
        "lng": 116.771341,
        "lat": 38.270959,
        "name": "沧州市",
        "level": "city",
        "childrenNum": 16
    },
    "130902": {
        "lng": 116.906141,
        "lat": 38.309747,
        "name": "新华区",
        "level": "district",
        "childrenNum": 0
    },
    "130903": {
        "lng": 116.828488,
        "lat": 38.315734,
        "name": "运河区",
        "level": "district",
        "childrenNum": 0
    },
    "130921": {
        "lng": 117.007478,
        "lat": 38.219856,
        "name": "沧县",
        "level": "district",
        "childrenNum": 0
    },
    "130922": {
        "lng": 116.846737,
        "lat": 38.559872,
        "name": "青县",
        "level": "district",
        "childrenNum": 0
    },
    "130923": {
        "lng": 116.669397,
        "lat": 37.882433,
        "name": "东光县",
        "level": "district",
        "childrenNum": 0
    },
    "130924": {
        "lng": 117.561376,
        "lat": 38.137418,
        "name": "海兴县",
        "level": "district",
        "childrenNum": 0
    },
    "130925": {
        "lng": 117.258834,
        "lat": 37.954847,
        "name": "盐山县",
        "level": "district",
        "childrenNum": 0
    },
    "130926": {
        "lng": 115.882137,
        "lat": 38.414385,
        "name": "肃宁县",
        "level": "district",
        "childrenNum": 0
    },
    "130927": {
        "lng": 116.856055,
        "lat": 38.016773,
        "name": "南皮县",
        "level": "district",
        "childrenNum": 0
    },
    "130928": {
        "lng": 116.500077,
        "lat": 37.655887,
        "name": "吴桥县",
        "level": "district",
        "childrenNum": 0
    },
    "130929": {
        "lng": 116.169831,
        "lat": 38.236931,
        "name": "献县",
        "level": "district",
        "childrenNum": 0
    },
    "130930": {
        "lng": 117.149672,
        "lat": 38.084903,
        "name": "孟村回族自治县",
        "level": "district",
        "childrenNum": 0
    },
    "130981": {
        "lng": 116.381827,
        "lat": 38.084193,
        "name": "泊头市",
        "level": "district",
        "childrenNum": 0
    },
    "130982": {
        "lng": 116.157313,
        "lat": 38.737031,
        "name": "任丘市",
        "level": "district",
        "childrenNum": 0
    },
    "130983": {
        "lng": 117.434912,
        "lat": 38.398124,
        "name": "黄骅市",
        "level": "district",
        "childrenNum": 0
    },
    "130984": {
        "lng": 116.266852,
        "lat": 38.478822,
        "name": "河间市",
        "level": "district",
        "childrenNum": 0
    },
    "131000": {
        "lng": 116.540212,
        "lat": 39.111215,
        "name": "廊坊市",
        "level": "city",
        "childrenNum": 10
    },
    "131002": {
        "lng": 116.758623,
        "lat": 39.343267,
        "name": "安次区",
        "level": "district",
        "childrenNum": 0
    },
    "131003": {
        "lng": 116.629064,
        "lat": 39.53896,
        "name": "广阳区",
        "level": "district",
        "childrenNum": 0
    },
    "131022": {
        "lng": 116.28441,
        "lat": 39.346111,
        "name": "固安县",
        "level": "district",
        "childrenNum": 0
    },
    "131023": {
        "lng": 116.553421,
        "lat": 39.296403,
        "name": "永清县",
        "level": "district",
        "childrenNum": 0
    },
    "131024": {
        "lng": 117.045397,
        "lat": 39.736872,
        "name": "香河县",
        "level": "district",
        "childrenNum": 0
    },
    "131025": {
        "lng": 116.584631,
        "lat": 38.662626,
        "name": "大城县",
        "level": "district",
        "childrenNum": 0
    },
    "131026": {
        "lng": 116.486965,
        "lat": 38.907371,
        "name": "文安县",
        "level": "district",
        "childrenNum": 0
    },
    "131028": {
        "lng": 116.941853,
        "lat": 39.893562,
        "name": "大厂回族自治县",
        "level": "district",
        "childrenNum": 0
    },
    "131081": {
        "lng": 116.56869,
        "lat": 39.104355,
        "name": "霸州市",
        "level": "district",
        "childrenNum": 0
    },
    "131082": {
        "lng": 117.013814,
        "lat": 39.960535,
        "name": "三河市",
        "level": "district",
        "childrenNum": 0
    },
    "131100": {
        "lng": 115.828761,
        "lat": 37.7648,
        "name": "衡水市",
        "level": "city",
        "childrenNum": 11
    },
    "131102": {
        "lng": 115.663275,
        "lat": 37.718614,
        "name": "桃城区",
        "level": "district",
        "childrenNum": 0
    },
    "131103": {
        "lng": 115.464843,
        "lat": 37.547953,
        "name": "冀州区",
        "level": "district",
        "childrenNum": 0
    },
    "131121": {
        "lng": 115.752981,
        "lat": 37.455148,
        "name": "枣强县",
        "level": "district",
        "childrenNum": 0
    },
    "131122": {
        "lng": 115.940532,
        "lat": 37.820955,
        "name": "武邑县",
        "level": "district",
        "childrenNum": 0
    },
    "131123": {
        "lng": 115.916273,
        "lat": 38.045559,
        "name": "武强县",
        "level": "district",
        "childrenNum": 0
    },
    "131124": {
        "lng": 115.734412,
        "lat": 38.218091,
        "name": "饶阳县",
        "level": "district",
        "childrenNum": 0
    },
    "131125": {
        "lng": 115.483403,
        "lat": 38.237875,
        "name": "安平县",
        "level": "district",
        "childrenNum": 0
    },
    "131126": {
        "lng": 115.970265,
        "lat": 37.35064,
        "name": "故城县",
        "level": "district",
        "childrenNum": 0
    },
    "131127": {
        "lng": 116.195431,
        "lat": 37.662526,
        "name": "景县",
        "level": "district",
        "childrenNum": 0
    },
    "131128": {
        "lng": 116.323983,
        "lat": 37.906815,
        "name": "阜城县",
        "level": "district",
        "childrenNum": 0
    },
    "131182": {
        "lng": 115.581623,
        "lat": 37.952239,
        "name": "深州市",
        "level": "district",
        "childrenNum": 0
    },
    "140000": {
        "lng": 112.304436,
        "lat": 37.618179,
        "name": "山西省",
        "level": "province",
        "childrenNum": 11
    },
    "140100": {
        "lng": 112.322147,
        "lat": 37.960573,
        "name": "太原市",
        "level": "city",
        "childrenNum": 10
    },
    "140105": {
        "lng": 112.566093,
        "lat": 37.71378,
        "name": "小店区",
        "level": "district",
        "childrenNum": 0
    },
    "140106": {
        "lng": 112.664316,
        "lat": 37.86519,
        "name": "迎泽区",
        "level": "district",
        "childrenNum": 0
    },
    "140107": {
        "lng": 112.638537,
        "lat": 37.917855,
        "name": "杏花岭区",
        "level": "district",
        "childrenNum": 0
    },
    "140108": {
        "lng": 112.498332,
        "lat": 37.980153,
        "name": "尖草坪区",
        "level": "district",
        "childrenNum": 0
    },
    "140109": {
        "lng": 112.400268,
        "lat": 37.870528,
        "name": "万柏林区",
        "level": "district",
        "childrenNum": 0
    },
    "140110": {
        "lng": 112.435125,
        "lat": 37.729977,
        "name": "晋源区",
        "level": "district",
        "childrenNum": 0
    },
    "140121": {
        "lng": 112.379689,
        "lat": 37.586837,
        "name": "清徐县",
        "level": "district",
        "childrenNum": 0
    },
    "140122": {
        "lng": 112.667175,
        "lat": 38.15214,
        "name": "阳曲县",
        "level": "district",
        "childrenNum": 0
    },
    "140123": {
        "lng": 111.791321,
        "lat": 38.028649,
        "name": "娄烦县",
        "level": "district",
        "childrenNum": 0
    },
    "140181": {
        "lng": 112.10275,
        "lat": 37.899387,
        "name": "古交市",
        "level": "district",
        "childrenNum": 0
    },
    "140200": {
        "lng": 113.72499,
        "lat": 39.904541,
        "name": "大同市",
        "level": "city",
        "childrenNum": 10
    },
    "140212": {
        "lng": 113.182695,
        "lat": 40.263077,
        "name": "新荣区",
        "level": "district",
        "childrenNum": 0
    },
    "140213": {
        "lng": 113.313703,
        "lat": 40.085893,
        "name": "平城区",
        "level": "district",
        "childrenNum": 0
    },
    "140214": {
        "lng": 113.114195,
        "lat": 40.021423,
        "name": "云冈区",
        "level": "district",
        "childrenNum": 0
    },
    "140215": {
        "lng": 113.579015,
        "lat": 39.993649,
        "name": "云州区",
        "level": "district",
        "childrenNum": 0
    },
    "140221": {
        "lng": 113.804802,
        "lat": 40.22211,
        "name": "阳高县",
        "level": "district",
        "childrenNum": 0
    },
    "140222": {
        "lng": 114.156244,
        "lat": 40.384966,
        "name": "天镇县",
        "level": "district",
        "childrenNum": 0
    },
    "140223": {
        "lng": 114.15158,
        "lat": 39.762615,
        "name": "广灵县",
        "level": "district",
        "childrenNum": 0
    },
    "140224": {
        "lng": 114.207844,
        "lat": 39.372378,
        "name": "灵丘县",
        "level": "district",
        "childrenNum": 0
    },
    "140225": {
        "lng": 113.704854,
        "lat": 39.628272,
        "name": "浑源县",
        "level": "district",
        "childrenNum": 0
    },
    "140226": {
        "lng": 112.772184,
        "lat": 39.99543,
        "name": "左云县",
        "level": "district",
        "childrenNum": 0
    },
    "140300": {
        "lng": 113.505474,
        "lat": 38.064652,
        "name": "阳泉市",
        "level": "city",
        "childrenNum": 5
    },
    "140302": {
        "lng": 113.597621,
        "lat": 37.851697,
        "name": "城区",
        "level": "district",
        "childrenNum": 0
    },
    "140303": {
        "lng": 113.559066,
        "lat": 37.870085,
        "name": "矿区",
        "level": "district",
        "childrenNum": 0
    },
    "140311": {
        "lng": 113.594211,
        "lat": 37.961036,
        "name": "郊区",
        "level": "district",
        "childrenNum": 0
    },
    "140321": {
        "lng": 113.763656,
        "lat": 37.842501,
        "name": "平定县",
        "level": "district",
        "childrenNum": 0
    },
    "140322": {
        "lng": 113.355613,
        "lat": 38.223351,
        "name": "盂县",
        "level": "district",
        "childrenNum": 0
    },
    "140400": {
        "lng": 112.921277,
        "lat": 36.478022,
        "name": "长治市",
        "level": "city",
        "childrenNum": 12
    },
    "140403": {
        "lng": 113.097441,
        "lat": 36.257637,
        "name": "潞州区",
        "level": "district",
        "childrenNum": 0
    },
    "140404": {
        "lng": 113.079262,
        "lat": 36.019531,
        "name": "上党区",
        "level": "district",
        "childrenNum": 0
    },
    "140405": {
        "lng": 112.74491,
        "lat": 36.336289,
        "name": "屯留区",
        "level": "district",
        "childrenNum": 0
    },
    "140406": {
        "lng": 113.246411,
        "lat": 36.368886,
        "name": "潞城区",
        "level": "district",
        "childrenNum": 0
    },
    "140423": {
        "lng": 112.980918,
        "lat": 36.572823,
        "name": "襄垣县",
        "level": "district",
        "childrenNum": 0
    },
    "140425": {
        "lng": 113.526583,
        "lat": 36.214773,
        "name": "平顺县",
        "level": "district",
        "childrenNum": 0
    },
    "140426": {
        "lng": 113.389922,
        "lat": 36.613822,
        "name": "黎城县",
        "level": "district",
        "childrenNum": 0
    },
    "140427": {
        "lng": 113.364313,
        "lat": 35.986195,
        "name": "壶关县",
        "level": "district",
        "childrenNum": 0
    },
    "140428": {
        "lng": 112.795907,
        "lat": 36.104499,
        "name": "长子县",
        "level": "district",
        "childrenNum": 0
    },
    "140429": {
        "lng": 112.961871,
        "lat": 36.882149,
        "name": "武乡县",
        "level": "district",
        "childrenNum": 0
    },
    "140430": {
        "lng": 112.646509,
        "lat": 36.701327,
        "name": "沁县",
        "level": "district",
        "childrenNum": 0
    },
    "140431": {
        "lng": 112.283659,
        "lat": 36.696813,
        "name": "沁源县",
        "level": "district",
        "childrenNum": 0
    },
    "140500": {
        "lng": 112.713186,
        "lat": 35.610944,
        "name": "晋城市",
        "level": "city",
        "childrenNum": 6
    },
    "140502": {
        "lng": 112.84802,
        "lat": 35.516079,
        "name": "城区",
        "level": "district",
        "childrenNum": 0
    },
    "140521": {
        "lng": 112.371004,
        "lat": 35.747474,
        "name": "沁水县",
        "level": "district",
        "childrenNum": 0
    },
    "140522": {
        "lng": 112.352973,
        "lat": 35.422345,
        "name": "阳城县",
        "level": "district",
        "childrenNum": 0
    },
    "140524": {
        "lng": 113.337556,
        "lat": 35.683412,
        "name": "陵川县",
        "level": "district",
        "childrenNum": 0
    },
    "140525": {
        "lng": 112.764182,
        "lat": 35.429854,
        "name": "泽州县",
        "level": "district",
        "childrenNum": 0
    },
    "140581": {
        "lng": 112.928907,
        "lat": 35.804188,
        "name": "高平市",
        "level": "district",
        "childrenNum": 0
    },
    "140600": {
        "lng": 112.648197,
        "lat": 39.619375,
        "name": "朔州市",
        "level": "city",
        "childrenNum": 6
    },
    "140602": {
        "lng": 112.449799,
        "lat": 39.280973,
        "name": "朔城区",
        "level": "district",
        "childrenNum": 0
    },
    "140603": {
        "lng": 112.222974,
        "lat": 39.612911,
        "name": "平鲁区",
        "level": "district",
        "childrenNum": 0
    },
    "140621": {
        "lng": 112.780151,
        "lat": 39.511584,
        "name": "山阴县",
        "level": "district",
        "childrenNum": 0
    },
    "140622": {
        "lng": 113.25504,
        "lat": 39.502687,
        "name": "应县",
        "level": "district",
        "childrenNum": 0
    },
    "140623": {
        "lng": 112.415064,
        "lat": 40.001498,
        "name": "右玉县",
        "level": "district",
        "childrenNum": 0
    },
    "140681": {
        "lng": 113.103554,
        "lat": 39.786464,
        "name": "怀仁市",
        "level": "district",
        "childrenNum": 0
    },
    "140700": {
        "lng": 112.969398,
        "lat": 37.329161,
        "name": "晋中市",
        "level": "city",
        "childrenNum": 11
    },
    "140702": {
        "lng": 112.837033,
        "lat": 37.642794,
        "name": "榆次区",
        "level": "district",
        "childrenNum": 0
    },
    "140703": {
        "lng": 112.729812,
        "lat": 37.40065,
        "name": "太谷区",
        "level": "district",
        "childrenNum": 0
    },
    "140721": {
        "lng": 112.947818,
        "lat": 37.135174,
        "name": "榆社县",
        "level": "district",
        "childrenNum": 0
    },
    "140722": {
        "lng": 113.469312,
        "lat": 37.02506,
        "name": "左权县",
        "level": "district",
        "childrenNum": 0
    },
    "140723": {
        "lng": 113.470421,
        "lat": 37.340851,
        "name": "和顺县",
        "level": "district",
        "childrenNum": 0
    },
    "140724": {
        "lng": 113.745424,
        "lat": 37.557476,
        "name": "昔阳县",
        "level": "district",
        "childrenNum": 0
    },
    "140725": {
        "lng": 113.131851,
        "lat": 37.821789,
        "name": "寿阳县",
        "level": "district",
        "childrenNum": 0
    },
    "140727": {
        "lng": 112.463767,
        "lat": 37.285897,
        "name": "祁县",
        "level": "district",
        "childrenNum": 0
    },
    "140728": {
        "lng": 112.262178,
        "lat": 37.140832,
        "name": "平遥县",
        "level": "district",
        "childrenNum": 0
    },
    "140729": {
        "lng": 111.730475,
        "lat": 36.828065,
        "name": "灵石县",
        "level": "district",
        "childrenNum": 0
    },
    "140781": {
        "lng": 111.987966,
        "lat": 37.017991,
        "name": "介休市",
        "level": "district",
        "childrenNum": 0
    },
    "140800": {
        "lng": 111.070718,
        "lat": 35.188073,
        "name": "运城市",
        "level": "city",
        "childrenNum": 13
    },
    "140802": {
        "lng": 110.956097,
        "lat": 35.056725,
        "name": "盐湖区",
        "level": "district",
        "childrenNum": 0
    },
    "140821": {
        "lng": 110.619027,
        "lat": 35.142954,
        "name": "临猗县",
        "level": "district",
        "childrenNum": 0
    },
    "140822": {
        "lng": 110.714865,
        "lat": 35.381593,
        "name": "万荣县",
        "level": "district",
        "childrenNum": 0
    },
    "140823": {
        "lng": 111.312158,
        "lat": 35.368718,
        "name": "闻喜县",
        "level": "district",
        "childrenNum": 0
    },
    "140824": {
        "lng": 110.957783,
        "lat": 35.591406,
        "name": "稷山县",
        "level": "district",
        "childrenNum": 0
    },
    "140825": {
        "lng": 111.165309,
        "lat": 35.626784,
        "name": "新绛县",
        "level": "district",
        "childrenNum": 0
    },
    "140826": {
        "lng": 111.639748,
        "lat": 35.495331,
        "name": "绛县",
        "level": "district",
        "childrenNum": 0
    },
    "140827": {
        "lng": 111.818996,
        "lat": 35.21586,
        "name": "垣曲县",
        "level": "district",
        "childrenNum": 0
    },
    "140828": {
        "lng": 111.35306,
        "lat": 35.120604,
        "name": "夏县",
        "level": "district",
        "childrenNum": 0
    },
    "140829": {
        "lng": 111.244493,
        "lat": 34.881986,
        "name": "平陆县",
        "level": "district",
        "childrenNum": 0
    },
    "140830": {
        "lng": 110.610698,
        "lat": 34.704516,
        "name": "芮城县",
        "level": "district",
        "childrenNum": 0
    },
    "140881": {
        "lng": 110.480322,
        "lat": 34.887096,
        "name": "永济市",
        "level": "district",
        "childrenNum": 0
    },
    "140882": {
        "lng": 110.700108,
        "lat": 35.624602,
        "name": "河津市",
        "level": "district",
        "childrenNum": 0
    },
    "140900": {
        "lng": 112.414867,
        "lat": 38.885126,
        "name": "忻州市",
        "level": "city",
        "childrenNum": 14
    },
    "140902": {
        "lng": 112.599927,
        "lat": 38.431843,
        "name": "忻府区",
        "level": "district",
        "childrenNum": 0
    },
    "140921": {
        "lng": 113.029996,
        "lat": 38.510088,
        "name": "定襄县",
        "level": "district",
        "childrenNum": 0
    },
    "140922": {
        "lng": 113.437049,
        "lat": 38.770931,
        "name": "五台县",
        "level": "district",
        "childrenNum": 0
    },
    "140923": {
        "lng": 113.044724,
        "lat": 39.085062,
        "name": "代县",
        "level": "district",
        "childrenNum": 0
    },
    "140924": {
        "lng": 113.593844,
        "lat": 39.199281,
        "name": "繁峙县",
        "level": "district",
        "childrenNum": 0
    },
    "140925": {
        "lng": 112.187502,
        "lat": 38.815157,
        "name": "宁武县",
        "level": "district",
        "childrenNum": 0
    },
    "140926": {
        "lng": 112.059606,
        "lat": 38.394521,
        "name": "静乐县",
        "level": "district",
        "childrenNum": 0
    },
    "140927": {
        "lng": 112.002706,
        "lat": 39.16701,
        "name": "神池县",
        "level": "district",
        "childrenNum": 0
    },
    "140928": {
        "lng": 111.738147,
        "lat": 39.001636,
        "name": "五寨县",
        "level": "district",
        "childrenNum": 0
    },
    "140929": {
        "lng": 111.535548,
        "lat": 38.731563,
        "name": "岢岚县",
        "level": "district",
        "childrenNum": 0
    },
    "140930": {
        "lng": 111.352937,
        "lat": 39.201729,
        "name": "河曲县",
        "level": "district",
        "childrenNum": 0
    },
    "140931": {
        "lng": 111.135553,
        "lat": 38.881563,
        "name": "保德县",
        "level": "district",
        "childrenNum": 0
    },
    "140932": {
        "lng": 111.665441,
        "lat": 39.458341,
        "name": "偏关县",
        "level": "district",
        "childrenNum": 0
    },
    "140981": {
        "lng": 112.67502,
        "lat": 38.831601,
        "name": "原平市",
        "level": "district",
        "childrenNum": 0
    },
    "141000": {
        "lng": 111.381988,
        "lat": 36.228828,
        "name": "临汾市",
        "level": "city",
        "childrenNum": 17
    },
    "141002": {
        "lng": 111.469655,
        "lat": 36.11972,
        "name": "尧都区",
        "level": "district",
        "childrenNum": 0
    },
    "141021": {
        "lng": 111.519853,
        "lat": 35.701063,
        "name": "曲沃县",
        "level": "district",
        "childrenNum": 0
    },
    "141022": {
        "lng": 111.832131,
        "lat": 35.68903,
        "name": "翼城县",
        "level": "district",
        "childrenNum": 0
    },
    "141023": {
        "lng": 111.377154,
        "lat": 35.868491,
        "name": "襄汾县",
        "level": "district",
        "childrenNum": 0
    },
    "141024": {
        "lng": 111.652867,
        "lat": 36.320865,
        "name": "洪洞县",
        "level": "district",
        "childrenNum": 0
    },
    "141025": {
        "lng": 112.004986,
        "lat": 36.297955,
        "name": "古县",
        "level": "district",
        "childrenNum": 0
    },
    "141026": {
        "lng": 112.302432,
        "lat": 36.157882,
        "name": "安泽县",
        "level": "district",
        "childrenNum": 0
    },
    "141027": {
        "lng": 111.921567,
        "lat": 35.940038,
        "name": "浮山县",
        "level": "district",
        "childrenNum": 0
    },
    "141028": {
        "lng": 110.721328,
        "lat": 36.153216,
        "name": "吉县",
        "level": "district",
        "childrenNum": 0
    },
    "141029": {
        "lng": 110.937073,
        "lat": 35.91888,
        "name": "乡宁县",
        "level": "district",
        "childrenNum": 0
    },
    "141030": {
        "lng": 110.704006,
        "lat": 36.426124,
        "name": "大宁县",
        "level": "district",
        "childrenNum": 0
    },
    "141031": {
        "lng": 111.002721,
        "lat": 36.706748,
        "name": "隰县",
        "level": "district",
        "childrenNum": 0
    },
    "141032": {
        "lng": 110.611263,
        "lat": 36.731533,
        "name": "永和县",
        "level": "district",
        "childrenNum": 0
    },
    "141033": {
        "lng": 111.156072,
        "lat": 36.419989,
        "name": "蒲县",
        "level": "district",
        "childrenNum": 0
    },
    "141034": {
        "lng": 111.477149,
        "lat": 36.637495,
        "name": "汾西县",
        "level": "district",
        "childrenNum": 0
    },
    "141081": {
        "lng": 111.363659,
        "lat": 35.615536,
        "name": "侯马市",
        "level": "district",
        "childrenNum": 0
    },
    "141082": {
        "lng": 111.823963,
        "lat": 36.592999,
        "name": "霍州市",
        "level": "district",
        "childrenNum": 0
    },
    "141100": {
        "lng": 111.268548,
        "lat": 37.684104,
        "name": "吕梁市",
        "level": "city",
        "childrenNum": 13
    },
    "141102": {
        "lng": 111.30795,
        "lat": 37.543606,
        "name": "离石区",
        "level": "district",
        "childrenNum": 0
    },
    "141121": {
        "lng": 111.962285,
        "lat": 37.450431,
        "name": "文水县",
        "level": "district",
        "childrenNum": 0
    },
    "141122": {
        "lng": 111.812233,
        "lat": 37.680185,
        "name": "交城县",
        "level": "district",
        "childrenNum": 0
    },
    "141123": {
        "lng": 111.062566,
        "lat": 38.385603,
        "name": "兴县",
        "level": "district",
        "childrenNum": 0
    },
    "141124": {
        "lng": 110.895328,
        "lat": 37.955364,
        "name": "临县",
        "level": "district",
        "childrenNum": 0
    },
    "141125": {
        "lng": 110.87023,
        "lat": 37.398821,
        "name": "柳林县",
        "level": "district",
        "childrenNum": 0
    },
    "141126": {
        "lng": 110.745552,
        "lat": 37.029516,
        "name": "石楼县",
        "level": "district",
        "childrenNum": 0
    },
    "141127": {
        "lng": 111.601155,
        "lat": 38.336755,
        "name": "岚县",
        "level": "district",
        "childrenNum": 0
    },
    "141128": {
        "lng": 111.331711,
        "lat": 37.877876,
        "name": "方山县",
        "level": "district",
        "childrenNum": 0
    },
    "141129": {
        "lng": 111.177704,
        "lat": 37.258526,
        "name": "中阳县",
        "level": "district",
        "childrenNum": 0
    },
    "141130": {
        "lng": 111.309162,
        "lat": 36.951528,
        "name": "交口县",
        "level": "district",
        "childrenNum": 0
    },
    "141181": {
        "lng": 111.630451,
        "lat": 37.111329,
        "name": "孝义市",
        "level": "district",
        "childrenNum": 0
    },
    "141182": {
        "lng": 111.740257,
        "lat": 37.308644,
        "name": "汾阳市",
        "level": "district",
        "childrenNum": 0
    },
    "150000": {
        "lng": 114.077429,
        "lat": 44.331087,
        "name": "内蒙古自治区",
        "level": "province",
        "childrenNum": 12
    },
    "150100": {
        "lng": 111.50328,
        "lat": 40.597159,
        "name": "呼和浩特市",
        "level": "city",
        "childrenNum": 9
    },
    "150102": {
        "lng": 111.844321,
        "lat": 40.968113,
        "name": "新城区",
        "level": "district",
        "childrenNum": 0
    },
    "150103": {
        "lng": 111.558975,
        "lat": 40.868828,
        "name": "回民区",
        "level": "district",
        "childrenNum": 0
    },
    "150104": {
        "lng": 111.646136,
        "lat": 40.717725,
        "name": "玉泉区",
        "level": "district",
        "childrenNum": 0
    },
    "150105": {
        "lng": 111.943436,
        "lat": 40.785639,
        "name": "赛罕区",
        "level": "district",
        "childrenNum": 0
    },
    "150121": {
        "lng": 111.229862,
        "lat": 40.684182,
        "name": "土默特左旗",
        "level": "district",
        "childrenNum": 0
    },
    "150122": {
        "lng": 111.311033,
        "lat": 40.355565,
        "name": "托克托县",
        "level": "district",
        "childrenNum": 0
    },
    "150123": {
        "lng": 111.89514,
        "lat": 40.327517,
        "name": "和林格尔县",
        "level": "district",
        "childrenNum": 0
    },
    "150124": {
        "lng": 111.700161,
        "lat": 39.882957,
        "name": "清水河县",
        "level": "district",
        "childrenNum": 0
    },
    "150125": {
        "lng": 111.174093,
        "lat": 41.109643,
        "name": "武川县",
        "level": "district",
        "childrenNum": 0
    },
    "150200": {
        "lng": 110.266038,
        "lat": 41.559669,
        "name": "包头市",
        "level": "city",
        "childrenNum": 9
    },
    "150202": {
        "lng": 110.207275,
        "lat": 40.57604,
        "name": "东河区",
        "level": "district",
        "childrenNum": 0
    },
    "150203": {
        "lng": 109.755359,
        "lat": 40.686374,
        "name": "昆都仑区",
        "level": "district",
        "childrenNum": 0
    },
    "150204": {
        "lng": 109.958168,
        "lat": 40.689984,
        "name": "青山区",
        "level": "district",
        "childrenNum": 0
    },
    "150205": {
        "lng": 110.286154,
        "lat": 40.747287,
        "name": "石拐区",
        "level": "district",
        "childrenNum": 0
    },
    "150206": {
        "lng": 109.938644,
        "lat": 41.767761,
        "name": "白云鄂博矿区",
        "level": "district",
        "childrenNum": 0
    },
    "150207": {
        "lng": 109.664582,
        "lat": 40.604186,
        "name": "九原区",
        "level": "district",
        "childrenNum": 0
    },
    "150221": {
        "lng": 110.688082,
        "lat": 40.518635,
        "name": "土默特右旗",
        "level": "district",
        "childrenNum": 0
    },
    "150222": {
        "lng": 110.146314,
        "lat": 41.113731,
        "name": "固阳县",
        "level": "district",
        "childrenNum": 0
    },
    "150223": {
        "lng": 110.472676,
        "lat": 41.954988,
        "name": "达尔罕茂明安联合旗",
        "level": "district",
        "childrenNum": 0
    },
    "150300": {
        "lng": 106.874373,
        "lat": 39.426964,
        "name": "乌海市",
        "level": "city",
        "childrenNum": 3
    },
    "150302": {
        "lng": 106.848404,
        "lat": 39.683678,
        "name": "海勃湾区",
        "level": "district",
        "childrenNum": 0
    },
    "150303": {
        "lng": 106.922665,
        "lat": 39.274726,
        "name": "海南区",
        "level": "district",
        "childrenNum": 0
    },
    "150304": {
        "lng": 106.704571,
        "lat": 39.533057,
        "name": "乌达区",
        "level": "district",
        "childrenNum": 0
    },
    "150400": {
        "lng": 118.878285,
        "lat": 43.239277,
        "name": "赤峰市",
        "level": "city",
        "childrenNum": 12
    },
    "150402": {
        "lng": 118.984114,
        "lat": 42.189403,
        "name": "红山区",
        "level": "district",
        "childrenNum": 0
    },
    "150403": {
        "lng": 119.243478,
        "lat": 42.181693,
        "name": "元宝山区",
        "level": "district",
        "childrenNum": 0
    },
    "150404": {
        "lng": 118.614776,
        "lat": 42.403627,
        "name": "松山区",
        "level": "district",
        "childrenNum": 0
    },
    "150421": {
        "lng": 120.033011,
        "lat": 44.201823,
        "name": "阿鲁科尔沁旗",
        "level": "district",
        "childrenNum": 0
    },
    "150422": {
        "lng": 119.270087,
        "lat": 44.201302,
        "name": "巴林左旗",
        "level": "district",
        "childrenNum": 0
    },
    "150423": {
        "lng": 118.93345,
        "lat": 43.685471,
        "name": "巴林右旗",
        "level": "district",
        "childrenNum": 0
    },
    "150424": {
        "lng": 118.106167,
        "lat": 43.75835,
        "name": "林西县",
        "level": "district",
        "childrenNum": 0
    },
    "150425": {
        "lng": 117.352996,
        "lat": 43.247976,
        "name": "克什克腾旗",
        "level": "district",
        "childrenNum": 0
    },
    "150426": {
        "lng": 119.248434,
        "lat": 42.969563,
        "name": "翁牛特旗",
        "level": "district",
        "childrenNum": 0
    },
    "150428": {
        "lng": 118.643743,
        "lat": 41.898905,
        "name": "喀喇沁旗",
        "level": "district",
        "childrenNum": 0
    },
    "150429": {
        "lng": 118.896441,
        "lat": 41.564499,
        "name": "宁城县",
        "level": "district",
        "childrenNum": 0
    },
    "150430": {
        "lng": 120.150718,
        "lat": 42.426295,
        "name": "敖汉旗",
        "level": "district",
        "childrenNum": 0
    },
    "150500": {
        "lng": 121.569548,
        "lat": 43.834485,
        "name": "通辽市",
        "level": "city",
        "childrenNum": 8
    },
    "150502": {
        "lng": 122.280573,
        "lat": 43.651865,
        "name": "科尔沁区",
        "level": "district",
        "childrenNum": 0
    },
    "150521": {
        "lng": 122.492569,
        "lat": 44.049623,
        "name": "科尔沁左翼中旗",
        "level": "district",
        "childrenNum": 0
    },
    "150522": {
        "lng": 122.688034,
        "lat": 43.186904,
        "name": "科尔沁左翼后旗",
        "level": "district",
        "childrenNum": 0
    },
    "150523": {
        "lng": 121.317588,
        "lat": 43.728444,
        "name": "开鲁县",
        "level": "district",
        "childrenNum": 0
    },
    "150524": {
        "lng": 121.561146,
        "lat": 42.801414,
        "name": "库伦旗",
        "level": "district",
        "childrenNum": 0
    },
    "150525": {
        "lng": 120.935823,
        "lat": 42.966933,
        "name": "奈曼旗",
        "level": "district",
        "childrenNum": 0
    },
    "150526": {
        "lng": 120.596058,
        "lat": 44.807432,
        "name": "扎鲁特旗",
        "level": "district",
        "childrenNum": 0
    },
    "150581": {
        "lng": 119.541133,
        "lat": 45.496581,
        "name": "霍林郭勒市",
        "level": "district",
        "childrenNum": 0
    },
    "150600": {
        "lng": 108.637375,
        "lat": 39.425314,
        "name": "鄂尔多斯市",
        "level": "city",
        "childrenNum": 9
    },
    "150602": {
        "lng": 109.75022,
        "lat": 39.828458,
        "name": "东胜区",
        "level": "district",
        "childrenNum": 0
    },
    "150603": {
        "lng": 109.825115,
        "lat": 39.64346,
        "name": "康巴什区",
        "level": "district",
        "childrenNum": 0
    },
    "150621": {
        "lng": 109.856494,
        "lat": 40.214953,
        "name": "达拉特旗",
        "level": "district",
        "childrenNum": 0
    },
    "150622": {
        "lng": 110.879595,
        "lat": 39.788407,
        "name": "准格尔旗",
        "level": "district",
        "childrenNum": 0
    },
    "150623": {
        "lng": 107.580682,
        "lat": 38.271624,
        "name": "鄂托克前旗",
        "level": "district",
        "childrenNum": 0
    },
    "150624": {
        "lng": 107.744516,
        "lat": 39.27818,
        "name": "鄂托克旗",
        "level": "district",
        "childrenNum": 0
    },
    "150625": {
        "lng": 108.205675,
        "lat": 40.205135,
        "name": "杭锦旗",
        "level": "district",
        "childrenNum": 0
    },
    "150626": {
        "lng": 108.885044,
        "lat": 38.635547,
        "name": "乌审旗",
        "level": "district",
        "childrenNum": 0
    },
    "150627": {
        "lng": 109.699451,
        "lat": 39.417895,
        "name": "伊金霍洛旗",
        "level": "district",
        "childrenNum": 0
    },
    "150700": {
        "lng": 120.906902,
        "lat": 49.635232,
        "name": "呼伦贝尔市",
        "level": "city",
        "childrenNum": 14
    },
    "150702": {
        "lng": 120.012381,
        "lat": 49.256481,
        "name": "海拉尔区",
        "level": "district",
        "childrenNum": 0
    },
    "150703": {
        "lng": 117.649463,
        "lat": 49.432321,
        "name": "扎赉诺尔区",
        "level": "district",
        "childrenNum": 0
    },
    "150721": {
        "lng": 123.164072,
        "lat": 48.633144,
        "name": "阿荣旗",
        "level": "district",
        "childrenNum": 0
    },
    "150722": {
        "lng": 124.467119,
        "lat": 49.104976,
        "name": "莫力达瓦达斡尔族自治旗",
        "level": "district",
        "childrenNum": 0
    },
    "150723": {
        "lng": 125.0196,
        "lat": 50.730221,
        "name": "鄂伦春自治旗",
        "level": "district",
        "childrenNum": 0
    },
    "150724": {
        "lng": 120.062097,
        "lat": 48.492258,
        "name": "鄂温克族自治旗",
        "level": "district",
        "childrenNum": 0
    },
    "150725": {
        "lng": 119.507662,
        "lat": 49.581077,
        "name": "陈巴尔虎旗",
        "level": "district",
        "childrenNum": 0
    },
    "150726": {
        "lng": 118.598561,
        "lat": 48.432638,
        "name": "新巴尔虎左旗",
        "level": "district",
        "childrenNum": 0
    },
    "150727": {
        "lng": 116.786664,
        "lat": 48.635883,
        "name": "新巴尔虎右旗",
        "level": "district",
        "childrenNum": 0
    },
    "150781": {
        "lng": 117.557139,
        "lat": 49.537083,
        "name": "满洲里市",
        "level": "district",
        "childrenNum": 0
    },
    "150782": {
        "lng": 121.507106,
        "lat": 49.3245,
        "name": "牙克石市",
        "level": "district",
        "childrenNum": 0
    },
    "150783": {
        "lng": 121.920531,
        "lat": 47.737011,
        "name": "扎兰屯市",
        "level": "district",
        "childrenNum": 0
    },
    "150784": {
        "lng": 120.625329,
        "lat": 51.628506,
        "name": "额尔古纳市",
        "level": "district",
        "childrenNum": 0
    },
    "150785": {
        "lng": 121.789145,
        "lat": 51.387801,
        "name": "根河市",
        "level": "district",
        "childrenNum": 0
    },
    "150800": {
        "lng": 107.575749,
        "lat": 41.453305,
        "name": "巴彦淖尔市",
        "level": "city",
        "childrenNum": 7
    },
    "150802": {
        "lng": 107.434343,
        "lat": 40.925015,
        "name": "临河区",
        "level": "district",
        "childrenNum": 0
    },
    "150821": {
        "lng": 108.062409,
        "lat": 41.038197,
        "name": "五原县",
        "level": "district",
        "childrenNum": 0
    },
    "150822": {
        "lng": 106.667676,
        "lat": 40.547972,
        "name": "磴口县",
        "level": "district",
        "childrenNum": 0
    },
    "150823": {
        "lng": 109.100989,
        "lat": 40.899807,
        "name": "乌拉特前旗",
        "level": "district",
        "childrenNum": 0
    },
    "150824": {
        "lng": 108.467323,
        "lat": 41.82759,
        "name": "乌拉特中旗",
        "level": "district",
        "childrenNum": 0
    },
    "150825": {
        "lng": 106.417226,
        "lat": 41.527753,
        "name": "乌拉特后旗",
        "level": "district",
        "childrenNum": 0
    },
    "150826": {
        "lng": 107.030648,
        "lat": 40.878231,
        "name": "杭锦后旗",
        "level": "district",
        "childrenNum": 0
    },
    "150900": {
        "lng": 112.443087,
        "lat": 41.696874,
        "name": "乌兰察布市",
        "level": "city",
        "childrenNum": 11
    },
    "150902": {
        "lng": 113.17194,
        "lat": 41.069345,
        "name": "集宁区",
        "level": "district",
        "childrenNum": 0
    },
    "150921": {
        "lng": 112.438065,
        "lat": 40.951759,
        "name": "卓资县",
        "level": "district",
        "childrenNum": 0
    },
    "150922": {
        "lng": 114.157017,
        "lat": 41.968421,
        "name": "化德县",
        "level": "district",
        "childrenNum": 0
    },
    "150923": {
        "lng": 113.614976,
        "lat": 41.719499,
        "name": "商都县",
        "level": "district",
        "childrenNum": 0
    },
    "150924": {
        "lng": 113.768588,
        "lat": 40.94481,
        "name": "兴和县",
        "level": "district",
        "childrenNum": 0
    },
    "150925": {
        "lng": 112.543546,
        "lat": 40.497269,
        "name": "凉城县",
        "level": "district",
        "childrenNum": 0
    },
    "150926": {
        "lng": 113.211958,
        "lat": 40.786859,
        "name": "察哈尔右翼前旗",
        "level": "district",
        "childrenNum": 0
    },
    "150927": {
        "lng": 112.463905,
        "lat": 41.42039,
        "name": "察哈尔右翼中旗",
        "level": "district",
        "childrenNum": 0
    },
    "150928": {
        "lng": 113.064458,
        "lat": 41.521355,
        "name": "察哈尔右翼后旗",
        "level": "district",
        "childrenNum": 0
    },
    "150929": {
        "lng": 111.580676,
        "lat": 42.29483,
        "name": "四子王旗",
        "level": "district",
        "childrenNum": 0
    },
    "150981": {
        "lng": 113.301538,
        "lat": 40.551733,
        "name": "丰镇市",
        "level": "district",
        "childrenNum": 0
    },
    "152200": {
        "lng": 121.341355,
        "lat": 46.241397,
        "name": "兴安盟",
        "level": "city",
        "childrenNum": 6
    },
    "152201": {
        "lng": 122.417854,
        "lat": 46.019435,
        "name": "乌兰浩特市",
        "level": "district",
        "childrenNum": 0
    },
    "152202": {
        "lng": 120.349607,
        "lat": 47.155595,
        "name": "阿尔山市",
        "level": "district",
        "childrenNum": 0
    },
    "152221": {
        "lng": 121.071252,
        "lat": 46.36768,
        "name": "科尔沁右翼前旗",
        "level": "district",
        "childrenNum": 0
    },
    "152222": {
        "lng": 121.104567,
        "lat": 45.268401,
        "name": "科尔沁右翼中旗",
        "level": "district",
        "childrenNum": 0
    },
    "152223": {
        "lng": 122.372981,
        "lat": 46.787685,
        "name": "扎赉特旗",
        "level": "district",
        "childrenNum": 0
    },
    "152224": {
        "lng": 121.518266,
        "lat": 45.619204,
        "name": "突泉县",
        "level": "district",
        "childrenNum": 0
    },
    "152500": {
        "lng": 115.51632,
        "lat": 44.232965,
        "name": "锡林郭勒盟",
        "level": "city",
        "childrenNum": 12
    },
    "152501": {
        "lng": 112.035327,
        "lat": 43.415206,
        "name": "二连浩特市",
        "level": "district",
        "childrenNum": 0
    },
    "152502": {
        "lng": 116.142157,
        "lat": 44.079114,
        "name": "锡林浩特市",
        "level": "district",
        "childrenNum": 0
    },
    "152522": {
        "lng": 114.896823,
        "lat": 44.268025,
        "name": "阿巴嘎旗",
        "level": "district",
        "childrenNum": 0
    },
    "152523": {
        "lng": 113.144724,
        "lat": 44.03178,
        "name": "苏尼特左旗",
        "level": "district",
        "childrenNum": 0
    },
    "152524": {
        "lng": 112.914218,
        "lat": 42.883354,
        "name": "苏尼特右旗",
        "level": "district",
        "childrenNum": 0
    },
    "152525": {
        "lng": 117.771996,
        "lat": 45.813749,
        "name": "东乌珠穆沁旗",
        "level": "district",
        "childrenNum": 0
    },
    "152526": {
        "lng": 117.80411,
        "lat": 44.723025,
        "name": "西乌珠穆沁旗",
        "level": "district",
        "childrenNum": 0
    },
    "152527": {
        "lng": 115.292815,
        "lat": 41.896167,
        "name": "太仆寺旗",
        "level": "district",
        "childrenNum": 0
    },
    "152528": {
        "lng": 114.113225,
        "lat": 42.355296,
        "name": "镶黄旗",
        "level": "district",
        "childrenNum": 0
    },
    "152529": {
        "lng": 115.020349,
        "lat": 42.543128,
        "name": "正镶白旗",
        "level": "district",
        "childrenNum": 0
    },
    "152530": {
        "lng": 115.936617,
        "lat": 42.665867,
        "name": "正蓝旗",
        "level": "district",
        "childrenNum": 0
    },
    "152531": {
        "lng": 116.485104,
        "lat": 42.182116,
        "name": "多伦县",
        "level": "district",
        "childrenNum": 0
    },
    "152900": {
        "lng": 102.42556,
        "lat": 40.532392,
        "name": "阿拉善盟",
        "level": "city",
        "childrenNum": 3
    },
    "152921": {
        "lng": 105.030551,
        "lat": 39.538967,
        "name": "阿拉善左旗",
        "level": "district",
        "childrenNum": 0
    },
    "152922": {
        "lng": 102.453753,
        "lat": 40.138445,
        "name": "阿拉善右旗",
        "level": "district",
        "childrenNum": 0
    },
    "152923": {
        "lng": 100.186776,
        "lat": 41.666456,
        "name": "额济纳旗",
        "level": "district",
        "childrenNum": 0
    },
    "210000": {
        "lng": 122.604994,
        "lat": 41.299712,
        "name": "辽宁省",
        "level": "province",
        "childrenNum": 14
    },
    "210100": {
        "lng": 123.143796,
        "lat": 42.100641,
        "name": "沈阳市",
        "level": "city",
        "childrenNum": 13
    },
    "210102": {
        "lng": 123.389006,
        "lat": 41.746003,
        "name": "和平区",
        "level": "district",
        "childrenNum": 0
    },
    "210103": {
        "lng": 123.445696,
        "lat": 41.795591,
        "name": "沈河区",
        "level": "district",
        "childrenNum": 0
    },
    "210104": {
        "lng": 123.512129,
        "lat": 41.861227,
        "name": "大东区",
        "level": "district",
        "childrenNum": 0
    },
    "210105": {
        "lng": 123.425618,
        "lat": 41.85951,
        "name": "皇姑区",
        "level": "district",
        "childrenNum": 0
    },
    "210106": {
        "lng": 123.119361,
        "lat": 41.673501,
        "name": "铁西区",
        "level": "district",
        "childrenNum": 0
    },
    "210111": {
        "lng": 123.418969,
        "lat": 41.583169,
        "name": "苏家屯区",
        "level": "district",
        "childrenNum": 0
    },
    "210112": {
        "lng": 123.627317,
        "lat": 41.764818,
        "name": "浑南区",
        "level": "district",
        "childrenNum": 0
    },
    "210113": {
        "lng": 123.496836,
        "lat": 42.035269,
        "name": "沈北新区",
        "level": "district",
        "childrenNum": 0
    },
    "210114": {
        "lng": 123.253673,
        "lat": 41.906113,
        "name": "于洪区",
        "level": "district",
        "childrenNum": 0
    },
    "210115": {
        "lng": 122.744639,
        "lat": 41.553183,
        "name": "辽中区",
        "level": "district",
        "childrenNum": 0
    },
    "210123": {
        "lng": 123.267489,
        "lat": 42.759025,
        "name": "康平县",
        "level": "district",
        "childrenNum": 0
    },
    "210124": {
        "lng": 123.239321,
        "lat": 42.408583,
        "name": "法库县",
        "level": "district",
        "childrenNum": 0
    },
    "210181": {
        "lng": 122.857957,
        "lat": 42.009602,
        "name": "新民市",
        "level": "district",
        "childrenNum": 0
    },
    "210200": {
        "lng": 122.190893,
        "lat": 39.593378,
        "name": "大连市",
        "level": "city",
        "childrenNum": 10
    },
    "210202": {
        "lng": 121.67331,
        "lat": 38.900125,
        "name": "中山区",
        "level": "district",
        "childrenNum": 0
    },
    "210203": {
        "lng": 121.620142,
        "lat": 38.910058,
        "name": "西岗区",
        "level": "district",
        "childrenNum": 0
    },
    "210204": {
        "lng": 121.57005,
        "lat": 38.905634,
        "name": "沙河口区",
        "level": "district",
        "childrenNum": 0
    },
    "210211": {
        "lng": 121.518531,
        "lat": 38.985425,
        "name": "甘井子区",
        "level": "district",
        "childrenNum": 0
    },
    "210212": {
        "lng": 121.2525,
        "lat": 38.857425,
        "name": "旅顺口区",
        "level": "district",
        "childrenNum": 0
    },
    "210213": {
        "lng": 121.853889,
        "lat": 39.249258,
        "name": "金州区",
        "level": "district",
        "childrenNum": 0
    },
    "210214": {
        "lng": 122.287652,
        "lat": 39.605827,
        "name": "普兰店区",
        "level": "district",
        "childrenNum": 0
    },
    "210224": {
        "lng": 122.588968,
        "lat": 39.280032,
        "name": "长海县",
        "level": "district",
        "childrenNum": 0
    },
    "210281": {
        "lng": 121.775003,
        "lat": 39.706598,
        "name": "瓦房店市",
        "level": "district",
        "childrenNum": 0
    },
    "210283": {
        "lng": 122.935203,
        "lat": 39.843348,
        "name": "庄河市",
        "level": "district",
        "childrenNum": 0
    },
    "210300": {
        "lng": 123.016394,
        "lat": 40.718251,
        "name": "鞍山市",
        "level": "city",
        "childrenNum": 7
    },
    "210302": {
        "lng": 123.081284,
        "lat": 41.046333,
        "name": "铁东区",
        "level": "district",
        "childrenNum": 0
    },
    "210303": {
        "lng": 122.928418,
        "lat": 41.132878,
        "name": "铁西区",
        "level": "district",
        "childrenNum": 0
    },
    "210304": {
        "lng": 123.102113,
        "lat": 41.121623,
        "name": "立山区",
        "level": "district",
        "childrenNum": 0
    },
    "210311": {
        "lng": 122.946713,
        "lat": 40.985217,
        "name": "千山区",
        "level": "district",
        "childrenNum": 0
    },
    "210321": {
        "lng": 122.437855,
        "lat": 41.341289,
        "name": "台安县",
        "level": "district",
        "childrenNum": 0
    },
    "210323": {
        "lng": 123.339578,
        "lat": 40.397343,
        "name": "岫岩满族自治县",
        "level": "district",
        "childrenNum": 0
    },
    "210381": {
        "lng": 122.778304,
        "lat": 40.824679,
        "name": "海城市",
        "level": "district",
        "childrenNum": 0
    },
    "210400": {
        "lng": 124.662356,
        "lat": 41.837685,
        "name": "抚顺市",
        "level": "city",
        "childrenNum": 7
    },
    "210402": {
        "lng": 123.936695,
        "lat": 41.812256,
        "name": "新抚区",
        "level": "district",
        "childrenNum": 0
    },
    "210403": {
        "lng": 124.147814,
        "lat": 41.934137,
        "name": "东洲区",
        "level": "district",
        "childrenNum": 0
    },
    "210404": {
        "lng": 123.797866,
        "lat": 41.787842,
        "name": "望花区",
        "level": "district",
        "childrenNum": 0
    },
    "210411": {
        "lng": 123.907888,
        "lat": 41.942006,
        "name": "顺城区",
        "level": "district",
        "childrenNum": 0
    },
    "210421": {
        "lng": 124.166387,
        "lat": 41.676258,
        "name": "抚顺县",
        "level": "district",
        "childrenNum": 0
    },
    "210422": {
        "lng": 124.835007,
        "lat": 41.625651,
        "name": "新宾满族自治县",
        "level": "district",
        "childrenNum": 0
    },
    "210423": {
        "lng": 124.918471,
        "lat": 42.11327,
        "name": "清原满族自治县",
        "level": "district",
        "childrenNum": 0
    },
    "210500": {
        "lng": 124.574237,
        "lat": 41.231499,
        "name": "本溪市",
        "level": "city",
        "childrenNum": 6
    },
    "210502": {
        "lng": 123.701385,
        "lat": 41.220824,
        "name": "平山区",
        "level": "district",
        "childrenNum": 0
    },
    "210503": {
        "lng": 123.714735,
        "lat": 41.423883,
        "name": "溪湖区",
        "level": "district",
        "childrenNum": 0
    },
    "210504": {
        "lng": 123.873953,
        "lat": 41.325174,
        "name": "明山区",
        "level": "district",
        "childrenNum": 0
    },
    "210505": {
        "lng": 123.822976,
        "lat": 41.096872,
        "name": "南芬区",
        "level": "district",
        "childrenNum": 0
    },
    "210521": {
        "lng": 124.171395,
        "lat": 41.200551,
        "name": "本溪满族自治县",
        "level": "district",
        "childrenNum": 0
    },
    "210522": {
        "lng": 125.281957,
        "lat": 41.256209,
        "name": "桓仁满族自治县",
        "level": "district",
        "childrenNum": 0
    },
    "210600": {
        "lng": 124.40518,
        "lat": 40.544775,
        "name": "丹东市",
        "level": "city",
        "childrenNum": 6
    },
    "210602": {
        "lng": 124.323638,
        "lat": 40.178832,
        "name": "元宝区",
        "level": "district",
        "childrenNum": 0
    },
    "210603": {
        "lng": 124.292666,
        "lat": 40.049622,
        "name": "振兴区",
        "level": "district",
        "childrenNum": 0
    },
    "210604": {
        "lng": 124.29086,
        "lat": 40.241859,
        "name": "振安区",
        "level": "district",
        "childrenNum": 0
    },
    "210624": {
        "lng": 124.925347,
        "lat": 40.763806,
        "name": "宽甸满族自治县",
        "level": "district",
        "childrenNum": 0
    },
    "210681": {
        "lng": 123.848319,
        "lat": 39.962615,
        "name": "东港市",
        "level": "district",
        "childrenNum": 0
    },
    "210682": {
        "lng": 124.059326,
        "lat": 40.583747,
        "name": "凤城市",
        "level": "district",
        "childrenNum": 0
    },
    "210700": {
        "lng": 121.618541,
        "lat": 41.461822,
        "name": "锦州市",
        "level": "city",
        "childrenNum": 7
    },
    "210702": {
        "lng": 121.078614,
        "lat": 41.153672,
        "name": "古塔区",
        "level": "district",
        "childrenNum": 0
    },
    "210703": {
        "lng": 121.18047,
        "lat": 41.127212,
        "name": "凌河区",
        "level": "district",
        "childrenNum": 0
    },
    "210711": {
        "lng": 121.160594,
        "lat": 40.980422,
        "name": "太和区",
        "level": "district",
        "childrenNum": 0
    },
    "210726": {
        "lng": 122.252937,
        "lat": 41.792332,
        "name": "黑山县",
        "level": "district",
        "childrenNum": 0
    },
    "210727": {
        "lng": 121.297017,
        "lat": 41.530803,
        "name": "义县",
        "level": "district",
        "childrenNum": 0
    },
    "210781": {
        "lng": 121.306448,
        "lat": 41.170048,
        "name": "凌海市",
        "level": "district",
        "childrenNum": 0
    },
    "210782": {
        "lng": 121.857306,
        "lat": 41.540448,
        "name": "北镇市",
        "level": "district",
        "childrenNum": 0
    },
    "210800": {
        "lng": 122.456202,
        "lat": 40.391795,
        "name": "营口市",
        "level": "city",
        "childrenNum": 6
    },
    "210802": {
        "lng": 122.253235,
        "lat": 40.669949,
        "name": "站前区",
        "level": "district",
        "childrenNum": 0
    },
    "210803": {
        "lng": 122.248293,
        "lat": 40.584713,
        "name": "西市区",
        "level": "district",
        "childrenNum": 0
    },
    "210804": {
        "lng": 122.161166,
        "lat": 40.266719,
        "name": "鲅鱼圈区",
        "level": "district",
        "childrenNum": 0
    },
    "210811": {
        "lng": 122.382584,
        "lat": 40.682723,
        "name": "老边区",
        "level": "district",
        "childrenNum": 0
    },
    "210881": {
        "lng": 122.462024,
        "lat": 40.229034,
        "name": "盖州市",
        "level": "district",
        "childrenNum": 0
    },
    "210882": {
        "lng": 122.563913,
        "lat": 40.641117,
        "name": "大石桥市",
        "level": "district",
        "childrenNum": 0
    },
    "210900": {
        "lng": 121.961888,
        "lat": 42.282968,
        "name": "阜新市",
        "level": "city",
        "childrenNum": 7
    },
    "210902": {
        "lng": 121.632991,
        "lat": 41.957146,
        "name": "海州区",
        "level": "district",
        "childrenNum": 0
    },
    "210903": {
        "lng": 121.824192,
        "lat": 42.057526,
        "name": "新邱区",
        "level": "district",
        "childrenNum": 0
    },
    "210904": {
        "lng": 121.733328,
        "lat": 41.994633,
        "name": "太平区",
        "level": "district",
        "childrenNum": 0
    },
    "210905": {
        "lng": 121.435799,
        "lat": 41.752757,
        "name": "清河门区",
        "level": "district",
        "childrenNum": 0
    },
    "210911": {
        "lng": 121.620004,
        "lat": 42.036291,
        "name": "细河区",
        "level": "district",
        "childrenNum": 0
    },
    "210921": {
        "lng": 121.453452,
        "lat": 42.11807,
        "name": "阜新蒙古族自治县",
        "level": "district",
        "childrenNum": 0
    },
    "210922": {
        "lng": 122.466431,
        "lat": 42.51892,
        "name": "彰武县",
        "level": "district",
        "childrenNum": 0
    },
    "211000": {
        "lng": 123.251133,
        "lat": 41.184819,
        "name": "辽阳市",
        "level": "city",
        "childrenNum": 7
    },
    "211002": {
        "lng": 123.182426,
        "lat": 41.261464,
        "name": "白塔区",
        "level": "district",
        "childrenNum": 0
    },
    "211003": {
        "lng": 123.33924,
        "lat": 41.282102,
        "name": "文圣区",
        "level": "district",
        "childrenNum": 0
    },
    "211004": {
        "lng": 123.22556,
        "lat": 41.184658,
        "name": "宏伟区",
        "level": "district",
        "childrenNum": 0
    },
    "211005": {
        "lng": 123.417953,
        "lat": 41.149535,
        "name": "弓长岭区",
        "level": "district",
        "childrenNum": 0
    },
    "211011": {
        "lng": 123.088382,
        "lat": 41.320797,
        "name": "太子河区",
        "level": "district",
        "childrenNum": 0
    },
    "211021": {
        "lng": 123.374347,
        "lat": 40.953088,
        "name": "辽阳县",
        "level": "district",
        "childrenNum": 0
    },
    "211081": {
        "lng": 123.319601,
        "lat": 41.421551,
        "name": "灯塔市",
        "level": "district",
        "childrenNum": 0
    },
    "211100": {
        "lng": 121.999309,
        "lat": 41.06851,
        "name": "盘锦市",
        "level": "city",
        "childrenNum": 4
    },
    "211102": {
        "lng": 122.013935,
        "lat": 41.195083,
        "name": "双台子区",
        "level": "district",
        "childrenNum": 0
    },
    "211103": {
        "lng": 122.022469,
        "lat": 41.14611,
        "name": "兴隆台区",
        "level": "district",
        "childrenNum": 0
    },
    "211104": {
        "lng": 122.05242,
        "lat": 40.913075,
        "name": "大洼区",
        "level": "district",
        "childrenNum": 0
    },
    "211122": {
        "lng": 121.98528,
        "lat": 41.240701,
        "name": "盘山县",
        "level": "district",
        "childrenNum": 0
    },
    "211200": {
        "lng": 124.176584,
        "lat": 42.648938,
        "name": "铁岭市",
        "level": "city",
        "childrenNum": 7
    },
    "211202": {
        "lng": 123.851466,
        "lat": 42.247882,
        "name": "银州区",
        "level": "district",
        "childrenNum": 0
    },
    "211204": {
        "lng": 124.271326,
        "lat": 42.520352,
        "name": "清河区",
        "level": "district",
        "childrenNum": 0
    },
    "211221": {
        "lng": 123.703548,
        "lat": 42.266194,
        "name": "铁岭县",
        "level": "district",
        "childrenNum": 0
    },
    "211223": {
        "lng": 124.73206,
        "lat": 42.706707,
        "name": "西丰县",
        "level": "district",
        "childrenNum": 0
    },
    "211224": {
        "lng": 123.9393,
        "lat": 42.994205,
        "name": "昌图县",
        "level": "district",
        "childrenNum": 0
    },
    "211281": {
        "lng": 123.581029,
        "lat": 42.434001,
        "name": "调兵山市",
        "level": "district",
        "childrenNum": 0
    },
    "211282": {
        "lng": 124.045551,
        "lat": 42.542141,
        "name": "开原市",
        "level": "district",
        "childrenNum": 0
    },
    "211300": {
        "lng": 120.021858,
        "lat": 41.516568,
        "name": "朝阳市",
        "level": "city",
        "childrenNum": 7
    },
    "211302": {
        "lng": 120.537954,
        "lat": 41.580173,
        "name": "双塔区",
        "level": "district",
        "childrenNum": 0
    },
    "211303": {
        "lng": 120.287688,
        "lat": 41.562535,
        "name": "龙城区",
        "level": "district",
        "childrenNum": 0
    },
    "211321": {
        "lng": 120.292061,
        "lat": 41.352249,
        "name": "朝阳县",
        "level": "district",
        "childrenNum": 0
    },
    "211322": {
        "lng": 119.625367,
        "lat": 41.837961,
        "name": "建平县",
        "level": "district",
        "childrenNum": 0
    },
    "211324": {
        "lng": 119.768641,
        "lat": 41.138049,
        "name": "喀喇沁左翼蒙古族自治县",
        "level": "district",
        "childrenNum": 0
    },
    "211381": {
        "lng": 120.807621,
        "lat": 41.862374,
        "name": "北票市",
        "level": "district",
        "childrenNum": 0
    },
    "211382": {
        "lng": 119.264109,
        "lat": 40.974253,
        "name": "凌源市",
        "level": "district",
        "childrenNum": 0
    },
    "211400": {
        "lng": 120.21031,
        "lat": 40.620597,
        "name": "葫芦岛市",
        "level": "city",
        "childrenNum": 6
    },
    "211402": {
        "lng": 120.608401,
        "lat": 40.866683,
        "name": "连山区",
        "level": "district",
        "childrenNum": 0
    },
    "211403": {
        "lng": 120.905777,
        "lat": 40.733458,
        "name": "龙港区",
        "level": "district",
        "childrenNum": 0
    },
    "211404": {
        "lng": 120.77221,
        "lat": 41.033551,
        "name": "南票区",
        "level": "district",
        "childrenNum": 0
    },
    "211421": {
        "lng": 120.031339,
        "lat": 40.289624,
        "name": "绥中县",
        "level": "district",
        "childrenNum": 0
    },
    "211422": {
        "lng": 119.827574,
        "lat": 40.710576,
        "name": "建昌县",
        "level": "district",
        "childrenNum": 0
    },
    "211481": {
        "lng": 120.469994,
        "lat": 40.584045,
        "name": "兴城市",
        "level": "district",
        "childrenNum": 0
    },
    "220000": {
        "lng": 126.171208,
        "lat": 43.703954,
        "name": "吉林省",
        "level": "province",
        "childrenNum": 9
    },
    "220100": {
        "lng": 125.593273,
        "lat": 44.290795,
        "name": "长春市",
        "level": "city",
        "childrenNum": 11
    },
    "220102": {
        "lng": 125.412301,
        "lat": 43.725267,
        "name": "南关区",
        "level": "district",
        "childrenNum": 0
    },
    "220103": {
        "lng": 125.326657,
        "lat": 44.088569,
        "name": "宽城区",
        "level": "district",
        "childrenNum": 0
    },
    "220104": {
        "lng": 125.318042,
        "lat": 43.86491,
        "name": "朝阳区",
        "level": "district",
        "childrenNum": 0
    },
    "220105": {
        "lng": 125.606605,
        "lat": 43.866861,
        "name": "二道区",
        "level": "district",
        "childrenNum": 0
    },
    "220106": {
        "lng": 125.175055,
        "lat": 43.890116,
        "name": "绿园区",
        "level": "district",
        "childrenNum": 0
    },
    "220112": {
        "lng": 125.70623,
        "lat": 43.52608,
        "name": "双阳区",
        "level": "district",
        "childrenNum": 0
    },
    "220113": {
        "lng": 125.979165,
        "lat": 44.204262,
        "name": "九台区",
        "level": "district",
        "childrenNum": 0
    },
    "220122": {
        "lng": 125.08508,
        "lat": 44.472531,
        "name": "农安县",
        "level": "district",
        "childrenNum": 0
    },
    "220182": {
        "lng": 126.595959,
        "lat": 44.873204,
        "name": "榆树市",
        "level": "district",
        "childrenNum": 0
    },
    "220183": {
        "lng": 125.810373,
        "lat": 44.554404,
        "name": "德惠市",
        "level": "district",
        "childrenNum": 0
    },
    "220184": {
        "lng": 124.674107,
        "lat": 43.786324,
        "name": "公主岭市",
        "level": "district",
        "childrenNum": 0
    },
    "220200": {
        "lng": 126.849983,
        "lat": 43.588212,
        "name": "吉林市",
        "level": "city",
        "childrenNum": 9
    },
    "220202": {
        "lng": 126.283196,
        "lat": 44.036785,
        "name": "昌邑区",
        "level": "district",
        "childrenNum": 0
    },
    "220203": {
        "lng": 126.651253,
        "lat": 44.051949,
        "name": "龙潭区",
        "level": "district",
        "childrenNum": 0
    },
    "220204": {
        "lng": 126.29533,
        "lat": 43.856627,
        "name": "船营区",
        "level": "district",
        "childrenNum": 0
    },
    "220211": {
        "lng": 126.698504,
        "lat": 43.658351,
        "name": "丰满区",
        "level": "district",
        "childrenNum": 0
    },
    "220221": {
        "lng": 126.220851,
        "lat": 43.595657,
        "name": "永吉县",
        "level": "district",
        "childrenNum": 0
    },
    "220281": {
        "lng": 127.331819,
        "lat": 43.708477,
        "name": "蛟河市",
        "level": "district",
        "childrenNum": 0
    },
    "220282": {
        "lng": 127.040618,
        "lat": 43.048009,
        "name": "桦甸市",
        "level": "district",
        "childrenNum": 0
    },
    "220283": {
        "lng": 127.110477,
        "lat": 44.32942,
        "name": "舒兰市",
        "level": "district",
        "childrenNum": 0
    },
    "220284": {
        "lng": 126.166582,
        "lat": 43.051293,
        "name": "磐石市",
        "level": "district",
        "childrenNum": 0
    },
    "220300": {
        "lng": 124.388756,
        "lat": 43.487587,
        "name": "四平市",
        "level": "city",
        "childrenNum": 5
    },
    "220302": {
        "lng": 124.363723,
        "lat": 43.224394,
        "name": "铁西区",
        "level": "district",
        "childrenNum": 0
    },
    "220303": {
        "lng": 124.556207,
        "lat": 43.058574,
        "name": "铁东区",
        "level": "district",
        "childrenNum": 0
    },
    "220322": {
        "lng": 124.314662,
        "lat": 43.48416,
        "name": "梨树县",
        "level": "district",
        "childrenNum": 0
    },
    "220323": {
        "lng": 125.264312,
        "lat": 43.341275,
        "name": "伊通满族自治县",
        "level": "district",
        "childrenNum": 0
    },
    "220382": {
        "lng": 123.698743,
        "lat": 43.759743,
        "name": "双辽市",
        "level": "district",
        "childrenNum": 0
    },
    "220400": {
        "lng": 125.311392,
        "lat": 42.814462,
        "name": "辽源市",
        "level": "city",
        "childrenNum": 4
    },
    "220402": {
        "lng": 125.213994,
        "lat": 42.916941,
        "name": "龙山区",
        "level": "district",
        "childrenNum": 0
    },
    "220403": {
        "lng": 125.125809,
        "lat": 42.952406,
        "name": "西安区",
        "level": "district",
        "childrenNum": 0
    },
    "220421": {
        "lng": 125.448539,
        "lat": 42.678496,
        "name": "东丰县",
        "level": "district",
        "childrenNum": 0
    },
    "220422": {
        "lng": 124.991995,
        "lat": 42.927724,
        "name": "东辽县",
        "level": "district",
        "childrenNum": 0
    },
    "220500": {
        "lng": 125.955377,
        "lat": 41.964388,
        "name": "通化市",
        "level": "city",
        "childrenNum": 7
    },
    "220502": {
        "lng": 125.972706,
        "lat": 41.672326,
        "name": "东昌区",
        "level": "district",
        "childrenNum": 0
    },
    "220503": {
        "lng": 126.157123,
        "lat": 41.763735,
        "name": "二道江区",
        "level": "district",
        "childrenNum": 0
    },
    "220521": {
        "lng": 125.742378,
        "lat": 41.776228,
        "name": "通化县",
        "level": "district",
        "childrenNum": 0
    },
    "220523": {
        "lng": 126.335639,
        "lat": 42.551685,
        "name": "辉南县",
        "level": "district",
        "childrenNum": 0
    },
    "220524": {
        "lng": 125.909427,
        "lat": 42.179149,
        "name": "柳河县",
        "level": "district",
        "childrenNum": 0
    },
    "220581": {
        "lng": 125.715219,
        "lat": 42.534578,
        "name": "梅河口市",
        "level": "district",
        "childrenNum": 0
    },
    "220582": {
        "lng": 125.989459,
        "lat": 41.246324,
        "name": "集安市",
        "level": "district",
        "childrenNum": 0
    },
    "220600": {
        "lng": 127.290795,
        "lat": 42.074968,
        "name": "白山市",
        "level": "city",
        "childrenNum": 6
    },
    "220602": {
        "lng": 126.421424,
        "lat": 41.811956,
        "name": "浑江区",
        "level": "district",
        "childrenNum": 0
    },
    "220605": {
        "lng": 126.765003,
        "lat": 42.047103,
        "name": "江源区",
        "level": "district",
        "childrenNum": 0
    },
    "220621": {
        "lng": 127.617235,
        "lat": 42.271881,
        "name": "抚松县",
        "level": "district",
        "childrenNum": 0
    },
    "220622": {
        "lng": 126.896632,
        "lat": 42.444652,
        "name": "靖宇县",
        "level": "district",
        "childrenNum": 0
    },
    "220623": {
        "lng": 127.857818,
        "lat": 41.579032,
        "name": "长白朝鲜族自治县",
        "level": "district",
        "childrenNum": 0
    },
    "220681": {
        "lng": 127.187573,
        "lat": 41.811547,
        "name": "临江市",
        "level": "district",
        "childrenNum": 0
    },
    "220700": {
        "lng": 124.48612,
        "lat": 44.807335,
        "name": "松原市",
        "level": "city",
        "childrenNum": 5
    },
    "220702": {
        "lng": 124.860362,
        "lat": 45.286007,
        "name": "宁江区",
        "level": "district",
        "childrenNum": 0
    },
    "220721": {
        "lng": 124.468938,
        "lat": 44.862585,
        "name": "前郭尔罗斯蒙古族自治县",
        "level": "district",
        "childrenNum": 0
    },
    "220722": {
        "lng": 123.859141,
        "lat": 44.29813,
        "name": "长岭县",
        "level": "district",
        "childrenNum": 0
    },
    "220723": {
        "lng": 123.952567,
        "lat": 44.922339,
        "name": "乾安县",
        "level": "district",
        "childrenNum": 0
    },
    "220781": {
        "lng": 125.557869,
        "lat": 45.126169,
        "name": "扶余市",
        "level": "district",
        "childrenNum": 0
    },
    "220800": {
        "lng": 123.019642,
        "lat": 45.354625,
        "name": "白城市",
        "level": "city",
        "childrenNum": 5
    },
    "220802": {
        "lng": 122.841986,
        "lat": 45.64099,
        "name": "洮北区",
        "level": "district",
        "childrenNum": 0
    },
    "220821": {
        "lng": 123.496743,
        "lat": 45.981249,
        "name": "镇赉县",
        "level": "district",
        "childrenNum": 0
    },
    "220822": {
        "lng": 122.739939,
        "lat": 44.78046,
        "name": "通榆县",
        "level": "district",
        "childrenNum": 0
    },
    "220881": {
        "lng": 122.447985,
        "lat": 45.470651,
        "name": "洮南市",
        "level": "district",
        "childrenNum": 0
    },
    "220882": {
        "lng": 123.717499,
        "lat": 45.428544,
        "name": "大安市",
        "level": "district",
        "childrenNum": 0
    },
    "222400": {
        "lng": 129.13087,
        "lat": 43.15089,
        "name": "延边朝鲜族自治州",
        "level": "city",
        "childrenNum": 8
    },
    "222401": {
        "lng": 129.332301,
        "lat": 43.100159,
        "name": "延吉市",
        "level": "district",
        "childrenNum": 0
    },
    "222402": {
        "lng": 129.832666,
        "lat": 43.026947,
        "name": "图们市",
        "level": "district",
        "childrenNum": 0
    },
    "222403": {
        "lng": 128.232327,
        "lat": 43.560094,
        "name": "敦化市",
        "level": "district",
        "childrenNum": 0
    },
    "222404": {
        "lng": 130.696051,
        "lat": 43.074174,
        "name": "珲春市",
        "level": "district",
        "childrenNum": 0
    },
    "222405": {
        "lng": 129.441718,
        "lat": 42.70087,
        "name": "龙井市",
        "level": "district",
        "childrenNum": 0
    },
    "222406": {
        "lng": 128.904088,
        "lat": 42.460192,
        "name": "和龙市",
        "level": "district",
        "childrenNum": 0
    },
    "222424": {
        "lng": 129.936027,
        "lat": 43.533974,
        "name": "汪清县",
        "level": "district",
        "childrenNum": 0
    },
    "222426": {
        "lng": 128.43116,
        "lat": 42.693027,
        "name": "安图县",
        "level": "district",
        "childrenNum": 0
    },
    "230000": {
        "lng": 127.693027,
        "lat": 48.040465,
        "name": "黑龙江省",
        "level": "province",
        "childrenNum": 13
    },
    "230100": {
        "lng": 127.966759,
        "lat": 45.648633,
        "name": "哈尔滨市",
        "level": "city",
        "childrenNum": 18
    },
    "230102": {
        "lng": 126.373347,
        "lat": 45.668664,
        "name": "道里区",
        "level": "district",
        "childrenNum": 0
    },
    "230103": {
        "lng": 126.57275,
        "lat": 45.650527,
        "name": "南岗区",
        "level": "district",
        "childrenNum": 0
    },
    "230104": {
        "lng": 126.893475,
        "lat": 45.847448,
        "name": "道外区",
        "level": "district",
        "childrenNum": 0
    },
    "230108": {
        "lng": 126.665235,
        "lat": 45.58458,
        "name": "平房区",
        "level": "district",
        "childrenNum": 0
    },
    "230109": {
        "lng": 126.434402,
        "lat": 45.913435,
        "name": "松北区",
        "level": "district",
        "childrenNum": 0
    },
    "230110": {
        "lng": 126.781726,
        "lat": 45.698799,
        "name": "香坊区",
        "level": "district",
        "childrenNum": 0
    },
    "230111": {
        "lng": 126.809801,
        "lat": 46.133447,
        "name": "呼兰区",
        "level": "district",
        "childrenNum": 0
    },
    "230112": {
        "lng": 127.162108,
        "lat": 45.479923,
        "name": "阿城区",
        "level": "district",
        "childrenNum": 0
    },
    "230113": {
        "lng": 126.182557,
        "lat": 45.403569,
        "name": "双城区",
        "level": "district",
        "childrenNum": 0
    },